{
  "metadata": {
    "source": "OpenStreetMap via Overpass API",
    "bounds": {
      "south": 36,
      "north": 42,
      "west": 26,
      "east": 45
    },
    "description": "Hospitals in Turkey earthquake region (pre-Feb 2023 infrastructure)",
    "fetched_at": "2026-02-01T05:58:51.511Z",
    "total_count": 3150
  },
  "features": [
    {
      "id": 62673820,
      "type": "node",
      "lat": 39.9254075,
      "lon": 32.8319519,
      "name": "Başkent Üniversitesi Hastanesi",
      "name_en": null,
      "healthcare": "hospital",
      "operator": null,
      "emergency": null,
      "beds": null,
      "phone": null,
      "website": null,
      "address": {
        "street": null,
        "city": null,
        "postcode": null
      }
    },
    {
      "id": 75319365,
      "type": "node",
      "lat": 39.9047963,
      "lon": 32.8633166,
      "name": "Özel Çankaya Hastanesi",
      "name_en": null,
      "healthcare": "hospital",
      "operator": null,
      "emergency": null,
      "beds": null,
      "phone": null,
      "website": null,
      "address": {
        "street": null,
        "city": null,
        "postcode": null
      }
    },
    {
      "id": 247208522,
      "type": "node",
      "lat": 39.9093866,
      "lon": 32.8598732,
      "name": "Özel Biltaş Böbrek Taşı Kırma Merkezi",
      "name_en": null,
      "healthcare": "hospital",
      "operator": null,
      "emergency": null,
      "beds": null,
      "phone": null,
      "website": null,
      "address": {
        "street": null,
        "city": null,
        "postcode": null
      }
    },
    {
      "id": 256791649,
      "type": "node",
      "lat": 36.3834541,
      "lon": 43.1683962,
      "name": "مستشفى الخنساء",
      "name_en": "Khansa Hospital",
      "healthcare": "hospital",
      "operator": null,
      "emergency": null,
      "beds": null,
      "phone": null,
      "website": null,
      "address": {
        "street": null,
        "city": null,
        "postcode": null
      }
    },
    {
      "id": 279563546,
      "type": "node",
      "lat": 37.0399394,
      "lon": 27.4289622,
      "name": "Bodrum Amerikan Hastanesi",
      "name_en": null,
      "healthcare": "hospital",
      "operator": null,
      "emergency": null,
      "beds": null,
      "phone": null,
      "website": null,
      "address": {
        "street": null,
        "city": null,
        "postcode": null
      }
    },
    {
      "id": 309895232,
      "type": "node",
      "lat": 40.0608258,
      "lon": 32.1163283,
      "name": "Doktor",
      "name_en": null,
      "healthcare": "hospital",
      "operator": null,
      "emergency": null,
      "beds": null,
      "phone": null,
      "website": null,
      "address": {
        "street": null,
        "city": null,
        "postcode": null
      }
    },
    {
      "id": 309895235,
      "type": "node",
      "lat": 40.0608996,
      "lon": 32.116534,
      "name": "Fizik Tedavi Merkezi",
      "name_en": null,
      "healthcare": "hospital",
      "operator": null,
      "emergency": null,
      "beds": null,
      "phone": null,
      "website": null,
      "address": {
        "street": null,
        "city": null,
        "postcode": null
      }
    },
    {
      "id": 310402871,
      "type": "node",
      "lat": 39.8863381,
      "lon": 32.847987,
      "name": "Güzeltepe Semt Polikliniği",
      "name_en": null,
      "healthcare": "hospital",
      "operator": null,
      "emergency": null,
      "beds": null,
      "phone": null,
      "website": null,
      "address": {
        "street": null,
        "city": null,
        "postcode": null
      }
    },
    {
      "id": 312779099,
      "type": "node",
      "lat": 39.9043285,
      "lon": 32.8664682,
      "name": "Özel Denge İç Hastalıkları Merkezi",
      "name_en": null,
      "healthcare": "hospital",
      "operator": null,
      "emergency": null,
      "beds": null,
      "phone": null,
      "website": null,
      "address": {
        "street": null,
        "city": null,
        "postcode": null
      }
    },
    {
      "id": 312788094,
      "type": "node",
      "lat": 39.8932607,
      "lon": 32.8796874,
      "name": "Semt Polikliniği",
      "name_en": null,
      "healthcare": "hospital",
      "operator": null,
      "emergency": "no",
      "beds": null,
      "phone": null,
      "website": null,
      "address": {
        "street": null,
        "city": null,
        "postcode": null
      }
    },
    {
      "id": 355174199,
      "type": "node",
      "lat": 36.6223089,
      "lon": 29.1150102,
      "name": "Unknown Hospital",
      "name_en": null,
      "healthcare": "hospital",
      "operator": null,
      "emergency": null,
      "beds": null,
      "phone": null,
      "website": null,
      "address": {
        "street": null,
        "city": null,
        "postcode": null
      }
    },
    {
      "id": 531393598,
      "type": "node",
      "lat": 41.0259618,
      "lon": 29.0218119,
      "name": "Hospital Türk",
      "name_en": null,
      "healthcare": "hospital",
      "operator": null,
      "emergency": null,
      "beds": null,
      "phone": null,
      "website": null,
      "address": {
        "street": null,
        "city": null,
        "postcode": null
      }
    },
    {
      "id": 621844749,
      "type": "node",
      "lat": 40.194192,
      "lon": 44.561679,
      "name": "Գրիգոր Լուսավորիչ բժշկական կենտրոն",
      "name_en": "Grigor Lusavorich medical center",
      "healthcare": "hospital",
      "operator": null,
      "emergency": null,
      "beds": null,
      "phone": "+374 10 64 59 00",
      "website": null,
      "address": {
        "street": "Գյուրջյան փողոց",
        "city": "Երևան",
        "postcode": "0056"
      }
    },
    {
      "id": 633319308,
      "type": "node",
      "lat": 40.2060786,
      "lon": 44.4777415,
      "name": "\"Արմենիա\" պոլիկլինիկա",
      "name_en": "\"Armenia\" Polyclinc",
      "healthcare": "hospital",
      "operator": null,
      "emergency": null,
      "beds": null,
      "phone": null,
      "website": null,
      "address": {
        "street": "Ֆուչիկի փողոց",
        "city": "Երևան",
        "postcode": null
      }
    },
    {
      "id": 633319421,
      "type": "node",
      "lat": 40.209191,
      "lon": 44.5014409,
      "name": "Արաբկիր մանկաբուժական կենտրոն",
      "name_en": "Arabkir Infanite Medical Center",
      "healthcare": "hospital",
      "operator": null,
      "emergency": null,
      "beds": null,
      "phone": null,
      "website": null,
      "address": {
        "street": null,
        "city": null,
        "postcode": null
      }
    },
    {
      "id": 633546046,
      "type": "node",
      "lat": 40.2016731,
      "lon": 44.5017316,
      "name": "11-րդ Պոլիկլինիկա",
      "name_en": "Polyclinic number 11",
      "healthcare": "hospital",
      "operator": null,
      "emergency": null,
      "beds": null,
      "phone": null,
      "website": null,
      "address": {
        "street": null,
        "city": null,
        "postcode": null
      }
    },
    {
      "id": 669922476,
      "type": "node",
      "lat": 41.7095756,
      "lon": 44.782352,
      "name": "თოდუას კლინიკა",
      "name_en": "Todua Clinic",
      "healthcare": "hospital",
      "operator": null,
      "emergency": null,
      "beds": null,
      "phone": null,
      "website": null,
      "address": {
        "street": "იაკობ ნიკოლაძის ქუჩა",
        "city": null,
        "postcode": "0179"
      }
    },
    {
      "id": 948332608,
      "type": "node",
      "lat": 36.2152014,
      "lon": 28.1178297,
      "name": "Doctors",
      "name_en": null,
      "healthcare": "hospital",
      "operator": null,
      "emergency": null,
      "beds": null,
      "phone": null,
      "website": null,
      "address": {
        "street": null,
        "city": null,
        "postcode": null
      }
    },
    {
      "id": 970785553,
      "type": "node",
      "lat": 38.7282169,
      "lon": 35.4932213,
      "name": "Unknown Hospital",
      "name_en": null,
      "healthcare": "hospital",
      "operator": null,
      "emergency": null,
      "beds": null,
      "phone": null,
      "website": null,
      "address": {
        "street": null,
        "city": null,
        "postcode": null
      }
    },
    {
      "id": 1152642560,
      "type": "node",
      "lat": 41.7318905,
      "lon": 43.1642428,
      "name": "Unknown Hospital",
      "name_en": null,
      "healthcare": "hospital",
      "operator": null,
      "emergency": null,
      "beds": null,
      "phone": null,
      "website": null,
      "address": {
        "street": null,
        "city": null,
        "postcode": null
      }
    },
    {
      "id": 1179610906,
      "type": "node",
      "lat": 41.342422,
      "lon": 44.924754,
      "name": "ზულალ სეიდოვ კაჩაღანის საავადმყოფო (Zulal Seidov Kachaghani Hospital)",
      "name_en": "Zulal Seidov Kachaghani Hospital",
      "healthcare": "hospital",
      "operator": null,
      "emergency": null,
      "beds": null,
      "phone": null,
      "website": null,
      "address": {
        "street": null,
        "city": null,
        "postcode": null
      }
    },
    {
      "id": 1179611389,
      "type": "node",
      "lat": 41.4397709,
      "lon": 44.740398,
      "name": "Unknown Hospital",
      "name_en": null,
      "healthcare": "hospital",
      "operator": null,
      "emergency": null,
      "beds": null,
      "phone": null,
      "website": null,
      "address": {
        "street": null,
        "city": null,
        "postcode": null
      }
    },
    {
      "id": 1179611994,
      "type": "node",
      "lat": 41.3420331,
      "lon": 44.9250351,
      "name": "სამშობიარო განყოფილება (Maternity Department)",
      "name_en": "Maternity Department",
      "healthcare": "hospital",
      "operator": null,
      "emergency": null,
      "beds": null,
      "phone": null,
      "website": null,
      "address": {
        "street": null,
        "city": null,
        "postcode": null
      }
    },
    {
      "id": 1179612420,
      "type": "node",
      "lat": 41.3671994,
      "lon": 44.8400732,
      "name": "Unknown Hospital",
      "name_en": null,
      "healthcare": "hospital",
      "operator": null,
      "emergency": null,
      "beds": null,
      "phone": null,
      "website": null,
      "address": {
        "street": null,
        "city": null,
        "postcode": null
      }
    },
    {
      "id": 1179612878,
      "type": "node",
      "lat": 41.3482116,
      "lon": 44.7574672,
      "name": "Unknown Hospital",
      "name_en": null,
      "healthcare": "hospital",
      "operator": null,
      "emergency": null,
      "beds": null,
      "phone": null,
      "website": null,
      "address": {
        "street": null,
        "city": null,
        "postcode": null
      }
    },
    {
      "id": 1179616053,
      "type": "node",
      "lat": 41.5364626,
      "lon": 44.252555,
      "name": "შპს ბედიანის ფსიქიატრიული საავადმყოფო",
      "name_en": "LTD Bediani Psychiatric Hospital",
      "healthcare": "hospital",
      "operator": null,
      "emergency": null,
      "beds": null,
      "phone": null,
      "website": null,
      "address": {
        "street": null,
        "city": null,
        "postcode": null
      }
    },
    {
      "id": 1179616984,
      "type": "node",
      "lat": 41.3326865,
      "lon": 44.2048678,
      "name": "დმანისის საავადმყოფო",
      "name_en": "Dmanisi Hospital",
      "healthcare": "hospital",
      "operator": null,
      "emergency": null,
      "beds": null,
      "phone": null,
      "website": null,
      "address": {
        "street": null,
        "city": "დმანისი (Dmanisi)",
        "postcode": "1700"
      }
    },
    {
      "id": 1179617267,
      "type": "node",
      "lat": 41.3337288,
      "lon": 44.2113214,
      "name": "შპს გინეკა (LTD Gineka)",
      "name_en": "LTD Gineka",
      "healthcare": "hospital",
      "operator": null,
      "emergency": null,
      "beds": null,
      "phone": null,
      "website": null,
      "address": {
        "street": null,
        "city": null,
        "postcode": null
      }
    },
    {
      "id": 1179617514,
      "type": "node",
      "lat": 41.3381882,
      "lon": 44.2004938,
      "name": "დმანისის საავადმყოფო",
      "name_en": "Dmanisi Hospital",
      "healthcare": "hospital",
      "operator": null,
      "emergency": null,
      "beds": null,
      "phone": null,
      "website": null,
      "address": {
        "street": null,
        "city": null,
        "postcode": null
      }
    },
    {
      "id": 1203448746,
      "type": "node",
      "lat": 41.9203222,
      "lon": 44.4279094,
      "name": "კასპის რეგიონალური საავადმყოფო (Kaspi Regional Hospital)",
      "name_en": "Kaspi Regional Hospital",
      "healthcare": "hospital",
      "operator": null,
      "emergency": null,
      "beds": null,
      "phone": null,
      "website": null,
      "address": {
        "street": null,
        "city": null,
        "postcode": null
      }
    },
    {
      "id": 1203448973,
      "type": "node",
      "lat": 41.928735,
      "lon": 44.4181494,
      "name": "Unknown Hospital",
      "name_en": null,
      "healthcare": "hospital",
      "operator": null,
      "emergency": null,
      "beds": null,
      "phone": null,
      "website": null,
      "address": {
        "street": null,
        "city": null,
        "postcode": null
      }
    },
    {
      "id": 1203480632,
      "type": "node",
      "lat": 41.9950795,
      "lon": 43.6073056,
      "name": "Unknown Hospital",
      "name_en": null,
      "healthcare": "hospital",
      "operator": null,
      "emergency": null,
      "beds": null,
      "phone": null,
      "website": null,
      "address": {
        "street": null,
        "city": null,
        "postcode": null
      }
    },
    {
      "id": 1203509784,
      "type": "node",
      "lat": 41.9878524,
      "lon": 44.0902366,
      "name": "ნარკოლოგიური საავადმყოფო",
      "name_en": "Narcological Hospital",
      "healthcare": "hospital",
      "operator": null,
      "emergency": null,
      "beds": null,
      "phone": null,
      "website": null,
      "address": {
        "street": null,
        "city": null,
        "postcode": null
      }
    },
    {
      "id": 1226555941,
      "type": "node",
      "lat": 41.0336496,
      "lon": 28.9641454,
      "name": "Unknown Hospital",
      "name_en": null,
      "healthcare": "hospital",
      "operator": null,
      "emergency": null,
      "beds": null,
      "phone": null,
      "website": null,
      "address": {
        "street": null,
        "city": null,
        "postcode": null
      }
    },
    {
      "id": 1240775184,
      "type": "node",
      "lat": 41.0111084,
      "lon": 29.0190475,
      "name": "Unknown Hospital",
      "name_en": null,
      "healthcare": "hospital",
      "operator": null,
      "emergency": null,
      "beds": null,
      "phone": null,
      "website": null,
      "address": {
        "street": null,
        "city": null,
        "postcode": null
      }
    },
    {
      "id": 1258199240,
      "type": "node",
      "lat": 41.2629803,
      "lon": 43.5981486,
      "name": "Unknown Hospital",
      "name_en": null,
      "healthcare": "hospital",
      "operator": null,
      "emergency": null,
      "beds": null,
      "phone": null,
      "website": null,
      "address": {
        "street": null,
        "city": null,
        "postcode": null
      }
    },
    {
      "id": 1304981007,
      "type": "node",
      "lat": 36.8566029,
      "lon": 30.7468263,
      "name": "Medical Park",
      "name_en": null,
      "healthcare": "hospital",
      "operator": "Medical Park",
      "emergency": "yes",
      "beds": null,
      "phone": null,
      "website": null,
      "address": {
        "street": null,
        "city": null,
        "postcode": null
      }
    },
    {
      "id": 1392524179,
      "type": "node",
      "lat": 39.8976812,
      "lon": 41.2398127,
      "name": "Yakutiye Araştırma Hastanesi",
      "name_en": null,
      "healthcare": "hospital",
      "operator": null,
      "emergency": "yes",
      "beds": null,
      "phone": null,
      "website": null,
      "address": {
        "street": null,
        "city": "Erzurum",
        "postcode": null
      }
    },
    {
      "id": 1407272990,
      "type": "node",
      "lat": 41.0060255,
      "lon": 28.7968486,
      "name": "Vera Tıp Merkezi",
      "name_en": null,
      "healthcare": "hospital",
      "operator": null,
      "emergency": null,
      "beds": null,
      "phone": null,
      "website": null,
      "address": {
        "street": null,
        "city": null,
        "postcode": null
      }
    },
    {
      "id": 1415895339,
      "type": "node",
      "lat": 41.5145846,
      "lon": 42.3770779,
      "name": "შუბანის საავადმყოფო (Shubani Hospital)",
      "name_en": "Shubani Hospital",
      "healthcare": "hospital",
      "operator": null,
      "emergency": null,
      "beds": null,
      "phone": null,
      "website": null,
      "address": {
        "street": null,
        "city": null,
        "postcode": null
      }
    },
    {
      "id": 1415895394,
      "type": "node",
      "lat": 41.6449691,
      "lon": 42.2802238,
      "name": "Unknown Hospital",
      "name_en": null,
      "healthcare": "hospital",
      "operator": null,
      "emergency": null,
      "beds": null,
      "phone": null,
      "website": null,
      "address": {
        "street": null,
        "city": null,
        "postcode": null
      }
    },
    {
      "id": 1422660012,
      "type": "node",
      "lat": 41.7134621,
      "lon": 44.7990535,
      "name": "მედიჰელპი",
      "name_en": "Medihelp",
      "healthcare": "hospital",
      "operator": null,
      "emergency": "yes",
      "beds": null,
      "phone": null,
      "website": null,
      "address": {
        "street": null,
        "city": null,
        "postcode": null
      }
    },
    {
      "id": 1423111430,
      "type": "node",
      "lat": 40.7874789,
      "lon": 43.8365649,
      "name": "Ճերմակ հիվանդանոց",
      "name_en": "\"Chermak Hivandanots\"",
      "healthcare": "hospital",
      "operator": null,
      "emergency": null,
      "beds": null,
      "phone": "+374 312 5 23 45, +374 91 23 25 26",
      "website": null,
      "address": {
        "street": null,
        "city": null,
        "postcode": null
      }
    },
    {
      "id": 1429313827,
      "type": "node",
      "lat": 40.8034985,
      "lon": 43.834249,
      "name": "Infectious Diseases Hospital",
      "name_en": "Infectious Diseases Hospital",
      "healthcare": "hospital",
      "operator": null,
      "emergency": null,
      "beds": null,
      "phone": null,
      "website": null,
      "address": {
        "street": null,
        "city": null,
        "postcode": null
      }
    },
    {
      "id": 1430118838,
      "type": "node",
      "lat": 41.8110947,
      "lon": 41.7746952,
      "name": "Unknown Hospital",
      "name_en": null,
      "healthcare": "hospital",
      "operator": null,
      "emergency": null,
      "beds": null,
      "phone": null,
      "website": null,
      "address": {
        "street": null,
        "city": null,
        "postcode": null
      }
    },
    {
      "id": 1432874046,
      "type": "node",
      "lat": 40.1815006,
      "lon": 44.4981571,
      "name": "Արամյանց Բժշկական Կենտրոն",
      "name_en": "Aramyants Medical Centre",
      "healthcare": "hospital",
      "operator": null,
      "emergency": null,
      "beds": null,
      "phone": null,
      "website": null,
      "address": {
        "street": "Ձորափի փողոց",
        "city": "Երևան",
        "postcode": null
      }
    },
    {
      "id": 1459239548,
      "type": "node",
      "lat": 40.1563709,
      "lon": 44.4773176,
      "name": "«Երևան» բժշկական կենտրոն",
      "name_en": "\"Yerevan\" Medical Centre",
      "healthcare": "hospital",
      "operator": null,
      "emergency": null,
      "beds": null,
      "phone": null,
      "website": null,
      "address": {
        "street": null,
        "city": null,
        "postcode": null
      }
    },
    {
      "id": 1483978245,
      "type": "node",
      "lat": 41.0964088,
      "lon": 29.0535611,
      "name": "Baltalimanı Hastanesi",
      "name_en": null,
      "healthcare": "hospital",
      "operator": null,
      "emergency": "yes",
      "beds": null,
      "phone": null,
      "website": null,
      "address": {
        "street": null,
        "city": null,
        "postcode": null
      }
    },
    {
      "id": 1581235767,
      "type": "node",
      "lat": 40.6167606,
      "lon": 43.9690525,
      "name": "Արթիկի ծննդատուն",
      "name_en": "Artik Maternity",
      "healthcare": "hospital",
      "operator": null,
      "emergency": "yes",
      "beds": null,
      "phone": null,
      "website": null,
      "address": {
        "street": null,
        "city": null,
        "postcode": null
      }
    },
    {
      "id": 1615944507,
      "type": "node",
      "lat": 40.1478991,
      "lon": 44.036147,
      "name": "«ԶԱՐԻՇԱՏ ՄԿՐՏՉՅԱՆԻ ԱՆՎԱՆ ԱՐՄԱՎԻՐԻ ԲԺՇԿԱԿԱՆ ԿԵՆՏՐՈՆ»",
      "name_en": "Medical Center Aft. Z. Mkrtchyan",
      "healthcare": "hospital",
      "operator": null,
      "emergency": null,
      "beds": null,
      "phone": "+374 237 2 26 40,+374 237 2 37 25",
      "website": null,
      "address": {
        "street": null,
        "city": null,
        "postcode": null
      }
    },
    {
      "id": 1626574601,
      "type": "node",
      "lat": 39.9093951,
      "lon": 44.712132,
      "name": "Unknown Hospital",
      "name_en": null,
      "healthcare": "hospital",
      "operator": null,
      "emergency": null,
      "beds": null,
      "phone": null,
      "website": null,
      "address": {
        "street": null,
        "city": null,
        "postcode": null
      }
    },
    {
      "id": 1626574610,
      "type": "node",
      "lat": 39.9108682,
      "lon": 44.7174535,
      "name": "Անտոնյանի անվան",
      "name_en": null,
      "healthcare": "hospital",
      "operator": null,
      "emergency": null,
      "beds": null,
      "phone": "+374 234 2 36 13",
      "website": null,
      "address": {
        "street": null,
        "city": null,
        "postcode": null
      }
    },
    {
      "id": 1721283449,
      "type": "node",
      "lat": 41.352231,
      "lon": 26.5036849,
      "name": "Γενικό Νοσοκομείο Διδυμοτείχου",
      "name_en": null,
      "healthcare": "hospital",
      "operator": null,
      "emergency": "yes",
      "beds": null,
      "phone": "+302553350168",
      "website": "https://did-hosp.gr/",
      "address": {
        "street": "25ης Μαΐου",
        "city": "Διδυμότειχο",
        "postcode": "68300"
      }
    },
    {
      "id": 1740708127,
      "type": "node",
      "lat": 41.0632063,
      "lon": 29.0042388,
      "name": "Florence Nightingale",
      "name_en": null,
      "healthcare": "hospital",
      "operator": null,
      "emergency": "yes",
      "beds": null,
      "phone": "+90 212 288 34 00",
      "website": "https://www.florence.com.tr/",
      "address": {
        "street": "Cemil Aslan Güder Sokağı",
        "city": "İstanbul",
        "postcode": "34349"
      }
    },
    {
      "id": 1742689257,
      "type": "node",
      "lat": 40.1523212,
      "lon": 44.4746215,
      "name": "Պոլիկլինիկա թիվ 3",
      "name_en": "Policlinic No 3",
      "healthcare": "hospital",
      "operator": null,
      "emergency": "yes",
      "beds": null,
      "phone": null,
      "website": null,
      "address": {
        "street": null,
        "city": null,
        "postcode": null
      }
    },
    {
      "id": 1742696430,
      "type": "node",
      "lat": 40.1524467,
      "lon": 44.4738686,
      "name": "Սուրբ Աստվածամայր բժշկական կենտրոն",
      "name_en": "Surb Astvatsamayr Medical Centre",
      "healthcare": "hospital",
      "operator": null,
      "emergency": "yes",
      "beds": null,
      "phone": "+374 10 46 41 15,+374 11 30 33 03",
      "website": "http://www.sourbastvatsamayr.com",
      "address": {
        "street": null,
        "city": null,
        "postcode": null
      }
    },
    {
      "id": 1748382498,
      "type": "node",
      "lat": 39.8532531,
      "lon": 44.6909338,
      "name": "Ararat",
      "name_en": null,
      "healthcare": "hospital",
      "operator": null,
      "emergency": null,
      "beds": null,
      "phone": "+23443556",
      "website": "ararathosp.am",
      "address": {
        "street": "Խանջյան Փողոց",
        "city": null,
        "postcode": null
      }
    },
    {
      "id": 1749544379,
      "type": "node",
      "lat": 41.0396776,
      "lon": 29.0522183,
      "name": "Özel Küplüce Tıp Merkez",
      "name_en": null,
      "healthcare": "hospital",
      "operator": null,
      "emergency": null,
      "beds": null,
      "phone": null,
      "website": null,
      "address": {
        "street": null,
        "city": null,
        "postcode": null
      }
    },
    {
      "id": 1792102391,
      "type": "node",
      "lat": 38.7370205,
      "lon": 41.4942881,
      "name": "Şifa Hastanesi",
      "name_en": null,
      "healthcare": "hospital",
      "operator": null,
      "emergency": "yes",
      "beds": null,
      "phone": null,
      "website": null,
      "address": {
        "street": null,
        "city": null,
        "postcode": null
      }
    },
    {
      "id": 1810257553,
      "type": "node",
      "lat": 40.6147621,
      "lon": 43.9682169,
      "name": "Արթիկի բժշկական կենտրոն",
      "name_en": "Artik Medical Centre",
      "healthcare": "hospital",
      "operator": null,
      "emergency": "yes",
      "beds": null,
      "phone": null,
      "website": null,
      "address": {
        "street": null,
        "city": null,
        "postcode": null
      }
    },
    {
      "id": 1875009542,
      "type": "node",
      "lat": 40.6377707,
      "lon": 44.2214512,
      "name": "Ծաղկահովիտի հիվանդանոց",
      "name_en": "Tsaghkahovit Hospital",
      "healthcare": "hospital",
      "operator": null,
      "emergency": "yes",
      "beds": null,
      "phone": null,
      "website": null,
      "address": {
        "street": null,
        "city": null,
        "postcode": null
      }
    },
    {
      "id": 1905650693,
      "type": "node",
      "lat": 40.8787769,
      "lon": 29.2368748,
      "name": "Özel Remedy Hospital",
      "name_en": null,
      "healthcare": "hospital",
      "operator": null,
      "emergency": null,
      "beds": null,
      "phone": null,
      "website": null,
      "address": {
        "street": null,
        "city": null,
        "postcode": null
      }
    },
    {
      "id": 1923763514,
      "type": "node",
      "lat": 41.0479666,
      "lon": 28.8449942,
      "name": "Özel Bağcılar Tekden Hastanesi",
      "name_en": null,
      "healthcare": "hospital",
      "operator": null,
      "emergency": "yes",
      "beds": null,
      "phone": null,
      "website": null,
      "address": {
        "street": null,
        "city": null,
        "postcode": null
      }
    },
    {
      "id": 1929391028,
      "type": "node",
      "lat": 40.21521,
      "lon": 44.5772456,
      "name": "Թիվ 12 պոլիկլինիկա",
      "name_en": "Policlinic N12 of Avan",
      "healthcare": "hospital",
      "operator": null,
      "emergency": null,
      "beds": null,
      "phone": null,
      "website": null,
      "address": {
        "street": "Մարշալ Խուդյակովի փողոց",
        "city": "Երևան",
        "postcode": "0060"
      }
    },
    {
      "id": 1935274553,
      "type": "node",
      "lat": 40.977664,
      "lon": 28.8730593,
      "name": "Acıbadem Hospital",
      "name_en": "Acıbadem Bakirkoy Hospital",
      "healthcare": "hospital",
      "operator": "Acıbadem",
      "emergency": "yes",
      "beds": null,
      "phone": null,
      "website": null,
      "address": {
        "street": null,
        "city": null,
        "postcode": null
      }
    },
    {
      "id": 1955866888,
      "type": "node",
      "lat": 37.8600215,
      "lon": 27.2678679,
      "name": "Kuşadası Özel Hastanesi",
      "name_en": null,
      "healthcare": "hospital",
      "operator": null,
      "emergency": "yes",
      "beds": null,
      "phone": null,
      "website": null,
      "address": {
        "street": null,
        "city": null,
        "postcode": null
      }
    },
    {
      "id": 1978951458,
      "type": "node",
      "lat": 40.1890985,
      "lon": 44.5272092,
      "name": "Թիվ 2 ծննդատուն",
      "name_en": "Maternity No. 2",
      "healthcare": "hospital",
      "operator": null,
      "emergency": null,
      "beds": null,
      "phone": null,
      "website": null,
      "address": {
        "street": null,
        "city": null,
        "postcode": null
      }
    },
    {
      "id": 1996946293,
      "type": "node",
      "lat": 39.3686384,
      "lon": 26.1747433,
      "name": "First Aid",
      "name_en": null,
      "healthcare": "hospital",
      "operator": null,
      "emergency": "yes",
      "beds": null,
      "phone": null,
      "website": null,
      "address": {
        "street": null,
        "city": null,
        "postcode": null
      }
    },
    {
      "id": 1998855579,
      "type": "node",
      "lat": 40.2111091,
      "lon": 44.5246063,
      "name": "Երևանի Կայազորային հոսպիտալ",
      "name_en": "Yerevan Kanaz Military Hospital",
      "healthcare": "hospital",
      "operator": null,
      "emergency": null,
      "beds": null,
      "phone": "+374 10 23 00 12,+374 10 23 44 44",
      "website": null,
      "address": {
        "street": null,
        "city": null,
        "postcode": null
      }
    },
    {
      "id": 2007034833,
      "type": "node",
      "lat": 40.1868975,
      "lon": 44.5347044,
      "name": "ՎիտրոՄեդ",
      "name_en": "VitroMed",
      "healthcare": "hospital",
      "operator": null,
      "emergency": null,
      "beds": null,
      "phone": "+374 10 65 34 34",
      "website": "https://vitromed.am/",
      "address": {
        "street": null,
        "city": null,
        "postcode": null
      }
    },
    {
      "id": 2022283252,
      "type": "node",
      "lat": 40.2047636,
      "lon": 44.5431078,
      "name": "Պոլիկլինիկա",
      "name_en": "Polyclinic",
      "healthcare": "hospital",
      "operator": null,
      "emergency": "no",
      "beds": null,
      "phone": null,
      "website": null,
      "address": {
        "street": null,
        "city": null,
        "postcode": null
      }
    },
    {
      "id": 2033097498,
      "type": "node",
      "lat": 36.8706787,
      "lon": 42.9644218,
      "name": "مركز ادار الصحي",
      "name_en": "Adar care center",
      "healthcare": "hospital",
      "operator": null,
      "emergency": null,
      "beds": null,
      "phone": null,
      "website": null,
      "address": {
        "street": null,
        "city": "دهۆک",
        "postcode": null
      }
    },
    {
      "id": 2033097504,
      "type": "node",
      "lat": 36.8694717,
      "lon": 42.9559799,
      "name": "کۆمه‌لگه‌ها زه‌ری لاند یێ پزیشکی",
      "name_en": "Zerî land medical complex",
      "healthcare": "hospital",
      "operator": null,
      "emergency": null,
      "beds": null,
      "phone": null,
      "website": null,
      "address": {
        "street": "جادا ئامەد",
        "city": "دهۆک",
        "postcode": null
      }
    },
    {
      "id": 2096745663,
      "type": "node",
      "lat": 40.2109163,
      "lon": 28.9755935,
      "name": "Anadolu Hastanesi",
      "name_en": null,
      "healthcare": "hospital",
      "operator": null,
      "emergency": null,
      "beds": null,
      "phone": null,
      "website": null,
      "address": {
        "street": null,
        "city": null,
        "postcode": null
      }
    },
    {
      "id": 2100576314,
      "type": "node",
      "lat": 36.1611088,
      "lon": 43.9685698,
      "name": "نەخۆشخانەی فریاکەوتنی رۆژئاوای هەولێر",
      "name_en": "West Erbil emergency hospital",
      "healthcare": "hospital",
      "operator": null,
      "emergency": "yes",
      "beds": null,
      "phone": "066122",
      "website": null,
      "address": {
        "street": "شەقامی پێشەوا قازی",
        "city": "أربيل",
        "postcode": "44001"
      }
    },
    {
      "id": 2156746800,
      "type": "node",
      "lat": 36.2101484,
      "lon": 37.151961,
      "name": "Italian Hospital",
      "name_en": "Italian Hospital",
      "healthcare": "hospital",
      "operator": null,
      "emergency": null,
      "beds": null,
      "phone": null,
      "website": null,
      "address": {
        "street": null,
        "city": null,
        "postcode": null
      }
    },
    {
      "id": 2181137660,
      "type": "node",
      "lat": 41.6855268,
      "lon": 26.5432238,
      "name": "Bayezıd Ünitesi",
      "name_en": null,
      "healthcare": "hospital",
      "operator": null,
      "emergency": "no",
      "beds": null,
      "phone": null,
      "website": null,
      "address": {
        "street": null,
        "city": null,
        "postcode": null
      }
    },
    {
      "id": 2186911252,
      "type": "node",
      "lat": 40.1878979,
      "lon": 44.5071205,
      "name": "Unison NGO",
      "name_en": null,
      "healthcare": "hospital",
      "operator": null,
      "emergency": "no",
      "beds": null,
      "phone": "+374 10 52 21 70",
      "website": "http://www.unison.am/",
      "address": {
        "street": "Դերենիկ Դեմիրճյանի փողոց",
        "city": "Երևան",
        "postcode": null
      }
    },
    {
      "id": 2233558303,
      "type": "node",
      "lat": 40.1597743,
      "lon": 44.5276264,
      "name": "Policlinic no 10",
      "name_en": null,
      "healthcare": "hospital",
      "operator": null,
      "emergency": null,
      "beds": null,
      "phone": null,
      "website": null,
      "address": {
        "street": null,
        "city": null,
        "postcode": null
      }
    },
    {
      "id": 2247934937,
      "type": "node",
      "lat": 37.8274484,
      "lon": 30.5399429,
      "name": "SDÜ Araştırma ve Uygulama Hastanesi",
      "name_en": null,
      "healthcare": "hospital",
      "operator": null,
      "emergency": "yes",
      "beds": null,
      "phone": null,
      "website": null,
      "address": {
        "street": null,
        "city": null,
        "postcode": null
      }
    },
    {
      "id": 2252902520,
      "type": "node",
      "lat": 40.7933683,
      "lon": 29.4333872,
      "name": "Gebze Şifa Tıp Merkezi",
      "name_en": null,
      "healthcare": "hospital",
      "operator": null,
      "emergency": null,
      "beds": null,
      "phone": null,
      "website": null,
      "address": {
        "street": null,
        "city": null,
        "postcode": null
      }
    },
    {
      "id": 2260090099,
      "type": "node",
      "lat": 41.0672214,
      "lon": 29.0013232,
      "name": "Çevre Hastanesi",
      "name_en": null,
      "healthcare": "hospital",
      "operator": null,
      "emergency": "yes",
      "beds": null,
      "phone": "444 2 593",
      "website": "https://www.cevrehastanesi.com.tr/",
      "address": {
        "street": null,
        "city": null,
        "postcode": null
      }
    },
    {
      "id": 2260090104,
      "type": "node",
      "lat": 41.0673508,
      "lon": 29.0013661,
      "name": "Aksoy Hastanesi",
      "name_en": null,
      "healthcare": "hospital",
      "operator": null,
      "emergency": null,
      "beds": null,
      "phone": null,
      "website": null,
      "address": {
        "street": null,
        "city": null,
        "postcode": null
      }
    },
    {
      "id": 2264132223,
      "type": "node",
      "lat": 40.2045568,
      "lon": 44.5325965,
      "name": "Քանաքեռ-Զեյթուն բժշկական կենտրոն",
      "name_en": "\"Kanaker-Zeytun\" Medical Centre",
      "healthcare": "hospital",
      "operator": null,
      "emergency": "yes",
      "beds": null,
      "phone": "+374 10 28 58 09",
      "website": null,
      "address": {
        "street": null,
        "city": null,
        "postcode": null
      }
    },
    {
      "id": 2267982631,
      "type": "node",
      "lat": 40.1853776,
      "lon": 44.5219833,
      "name": "Avagyan Medical Center",
      "name_en": "Avagyan Medical Center",
      "healthcare": "hospital",
      "operator": null,
      "emergency": null,
      "beds": null,
      "phone": null,
      "website": null,
      "address": {
        "street": null,
        "city": null,
        "postcode": null
      }
    },
    {
      "id": 2269137836,
      "type": "node",
      "lat": 40.1896532,
      "lon": 44.526399,
      "name": "«Նյու-Մեդ» Ուրոլոգիայի կենտրոն",
      "name_en": "\"New-Med\" Urology Centre",
      "healthcare": "hospital",
      "operator": null,
      "emergency": null,
      "beds": null,
      "phone": "+374 10-56-10-30;+374 10 58 47 04;+374 10 54 56 30",
      "website": "https://www.newmed.am/",
      "address": {
        "street": null,
        "city": null,
        "postcode": null
      }
    },
    {
      "id": 2269137837,
      "type": "node",
      "lat": 40.1897833,
      "lon": 44.5264364,
      "name": "Ոստիկանական պոլիկլինիկա",
      "name_en": "Police polyclinic",
      "healthcare": "hospital",
      "operator": null,
      "emergency": null,
      "beds": null,
      "phone": null,
      "website": null,
      "address": {
        "street": null,
        "city": null,
        "postcode": null
      }
    },
    {
      "id": 2278925733,
      "type": "node",
      "lat": 40.179947,
      "lon": 44.5031133,
      "name": "Պոլիկլինիկա թիվ 1",
      "name_en": "Policlinic №1",
      "healthcare": "hospital",
      "operator": null,
      "emergency": null,
      "beds": null,
      "phone": null,
      "website": null,
      "address": {
        "street": null,
        "city": null,
        "postcode": null
      }
    },
    {
      "id": 2279410580,
      "type": "node",
      "lat": 41.0112282,
      "lon": 28.6428053,
      "name": "Birinci Göz Hastanesi Beylikdüzü",
      "name_en": null,
      "healthcare": "hospital",
      "operator": null,
      "emergency": null,
      "beds": null,
      "phone": null,
      "website": null,
      "address": {
        "street": null,
        "city": null,
        "postcode": null
      }
    },
    {
      "id": 2279410859,
      "type": "node",
      "lat": 41.019077,
      "lon": 28.6274846,
      "name": "Dünya Göz Hastanesi Beykent",
      "name_en": null,
      "healthcare": "hospital",
      "operator": null,
      "emergency": null,
      "beds": null,
      "phone": null,
      "website": null,
      "address": {
        "street": null,
        "city": null,
        "postcode": null
      }
    },
    {
      "id": 2300206085,
      "type": "node",
      "lat": 40.1997887,
      "lon": 44.5369752,
      "name": "Ophtalmological Clinic",
      "name_en": "Ophtalmological Clinic",
      "healthcare": "hospital",
      "operator": null,
      "emergency": "no",
      "beds": null,
      "phone": null,
      "website": null,
      "address": {
        "street": null,
        "city": null,
        "postcode": null
      }
    },
    {
      "id": 2311684920,
      "type": "node",
      "lat": 41.0533806,
      "lon": 28.9952948,
      "name": "Amerikan Hastanesi",
      "name_en": null,
      "healthcare": "hospital",
      "operator": null,
      "emergency": "yes",
      "beds": null,
      "phone": null,
      "website": null,
      "address": {
        "street": null,
        "city": null,
        "postcode": null
      }
    },
    {
      "id": 2351477764,
      "type": "node",
      "lat": 39.9595395,
      "lon": 32.5667538,
      "name": "Nurlu Göz Hastanesi",
      "name_en": null,
      "healthcare": "hospital",
      "operator": null,
      "emergency": null,
      "beds": null,
      "phone": null,
      "website": null,
      "address": {
        "street": null,
        "city": null,
        "postcode": null
      }
    },
    {
      "id": 2363452816,
      "type": "node",
      "lat": 41.057449,
      "lon": 28.9158289,
      "name": "Belde Tıp Merkezi",
      "name_en": null,
      "healthcare": "hospital",
      "operator": null,
      "emergency": "no",
      "beds": null,
      "phone": null,
      "website": null,
      "address": {
        "street": null,
        "city": null,
        "postcode": null
      }
    },
    {
      "id": 2367685360,
      "type": "node",
      "lat": 39.0919135,
      "lon": 26.5493107,
      "name": "ΕΠΕΙΓΟΝΤΑ",
      "name_en": null,
      "healthcare": "hospital",
      "operator": null,
      "emergency": "yes",
      "beds": null,
      "phone": null,
      "website": null,
      "address": {
        "street": null,
        "city": null,
        "postcode": null
      }
    },
    {
      "id": 2375550935,
      "type": "node",
      "lat": 38.9774569,
      "lon": 26.3759717,
      "name": "Covid Vaccination center",
      "name_en": null,
      "healthcare": "hospital",
      "operator": null,
      "emergency": null,
      "beds": null,
      "phone": "+302252031111",
      "website": null,
      "address": {
        "street": null,
        "city": "Πλωμάρι",
        "postcode": "81200"
      }
    },
    {
      "id": 2375736733,
      "type": "node",
      "lat": 37.053272,
      "lon": 43.6495399,
      "name": "Nexweşxane - نه‌خوه‌شخانه‌",
      "name_en": null,
      "healthcare": "hospital",
      "operator": null,
      "emergency": null,
      "beds": null,
      "phone": null,
      "website": null,
      "address": {
        "street": null,
        "city": null,
        "postcode": null
      }
    },
    {
      "id": 2420245472,
      "type": "node",
      "lat": 41.6382016,
      "lon": 42.7919863,
      "name": "Unknown Hospital",
      "name_en": null,
      "healthcare": "hospital",
      "operator": null,
      "emergency": null,
      "beds": null,
      "phone": null,
      "website": null,
      "address": {
        "street": null,
        "city": null,
        "postcode": null
      }
    },
    {
      "id": 2429706663,
      "type": "node",
      "lat": 36.2081421,
      "lon": 37.184831,
      "name": "مشفى دار الشفاء",
      "name_en": null,
      "healthcare": "hospital",
      "operator": null,
      "emergency": null,
      "beds": null,
      "phone": null,
      "website": null,
      "address": {
        "street": null,
        "city": null,
        "postcode": null
      }
    },
    {
      "id": 2431465070,
      "type": "node",
      "lat": 37.8592648,
      "lon": 30.8485205,
      "name": "Unknown Hospital",
      "name_en": null,
      "healthcare": "hospital",
      "operator": null,
      "emergency": null,
      "beds": null,
      "phone": null,
      "website": null,
      "address": {
        "street": null,
        "city": null,
        "postcode": null
      }
    },
    {
      "id": 2434321669,
      "type": "node",
      "lat": 36.2014941,
      "lon": 37.1749285,
      "name": "عيادة داخلية اطفال",
      "name_en": null,
      "healthcare": "hospital",
      "operator": null,
      "emergency": null,
      "beds": null,
      "phone": null,
      "website": null,
      "address": {
        "street": null,
        "city": null,
        "postcode": null
      }
    },
    {
      "id": 2434322200,
      "type": "node",
      "lat": 36.2016932,
      "lon": 37.1746496,
      "name": "عيادة اسنان",
      "name_en": null,
      "healthcare": "hospital",
      "operator": null,
      "emergency": null,
      "beds": null,
      "phone": null,
      "website": null,
      "address": {
        "street": null,
        "city": null,
        "postcode": null
      }
    },
    {
      "id": 2434327260,
      "type": "node",
      "lat": 36.2017971,
      "lon": 37.1743438,
      "name": "قابلة قانونية",
      "name_en": null,
      "healthcare": "hospital",
      "operator": null,
      "emergency": null,
      "beds": null,
      "phone": null,
      "website": null,
      "address": {
        "street": null,
        "city": null,
        "postcode": null
      }
    },
    {
      "id": 2435896104,
      "type": "node",
      "lat": 36.1816058,
      "lon": 37.1394324,
      "name": "مسفى الزرزور",
      "name_en": null,
      "healthcare": "hospital",
      "operator": null,
      "emergency": null,
      "beds": null,
      "phone": null,
      "website": null,
      "address": {
        "street": null,
        "city": null,
        "postcode": null
      }
    },
    {
      "id": 2435968734,
      "type": "node",
      "lat": 36.2124086,
      "lon": 37.1394186,
      "name": "مشفى الرسالة",
      "name_en": "Al resala Hospital",
      "healthcare": "hospital",
      "operator": null,
      "emergency": null,
      "beds": null,
      "phone": null,
      "website": null,
      "address": {
        "street": "شارع الرازي",
        "city": null,
        "postcode": null
      }
    },
    {
      "id": 2440298148,
      "type": "node",
      "lat": 36.219998,
      "lon": 37.1209247,
      "name": "مشفى الحكمة",
      "name_en": null,
      "healthcare": "hospital",
      "operator": null,
      "emergency": null,
      "beds": null,
      "phone": null,
      "website": null,
      "address": {
        "street": null,
        "city": null,
        "postcode": null
      }
    },
    {
      "id": 2446475203,
      "type": "node",
      "lat": 41.0347149,
      "lon": 28.6806966,
      "name": "Alataş Polikliniği",
      "name_en": null,
      "healthcare": "hospital",
      "operator": null,
      "emergency": null,
      "beds": null,
      "phone": null,
      "website": null,
      "address": {
        "street": null,
        "city": null,
        "postcode": null
      }
    },
    {
      "id": 2454581047,
      "type": "node",
      "lat": 41.711965,
      "lon": 44.7551339,
      "name": "როიალ დენტი",
      "name_en": "Royal Dent",
      "healthcare": "hospital",
      "operator": null,
      "emergency": null,
      "beds": null,
      "phone": "+995 32 222 61 68",
      "website": null,
      "address": {
        "street": "ილია ჭავჭავაძის გამზირი",
        "city": null,
        "postcode": null
      }
    },
    {
      "id": 2488212331,
      "type": "node",
      "lat": 36.1259891,
      "lon": 42.7845263,
      "name": "مستشفى الشهيد سلام الديراوي",
      "name_en": "Tall Tashi",
      "healthcare": "hospital",
      "operator": null,
      "emergency": null,
      "beds": null,
      "phone": null,
      "website": null,
      "address": {
        "street": null,
        "city": null,
        "postcode": null
      }
    },
    {
      "id": 2488247029,
      "type": "node",
      "lat": 36.3212077,
      "lon": 43.1892838,
      "name": "مستشفى السلام",
      "name_en": "Mustashfa al Musul",
      "healthcare": "hospital",
      "operator": null,
      "emergency": null,
      "beds": null,
      "phone": null,
      "website": null,
      "address": {
        "street": null,
        "city": null,
        "postcode": null
      }
    },
    {
      "id": 2488247030,
      "type": "node",
      "lat": 36.3873243,
      "lon": 43.166785,
      "name": "مستشفى الولادة",
      "name_en": "Suker Health Center",
      "healthcare": "hospital",
      "operator": null,
      "emergency": null,
      "beds": null,
      "phone": null,
      "website": null,
      "address": {
        "street": "36°23′10.72″N 43°10′03.34″E",
        "city": null,
        "postcode": null
      }
    },
    {
      "id": 2488247031,
      "type": "node",
      "lat": 36.488222,
      "lon": 43.113233,
      "name": "مستوصف الصحة الحيوانية",
      "name_en": "Mustawsaf as Sihhah al Hayawaniyah",
      "healthcare": "hospital",
      "operator": null,
      "emergency": null,
      "beds": null,
      "phone": null,
      "website": null,
      "address": {
        "street": null,
        "city": "تلكيف",
        "postcode": null
      }
    },
    {
      "id": 2504867325,
      "type": "node",
      "lat": 40.7844459,
      "lon": 43.8279128,
      "name": "Գյումրի Հոգեկան Առողջության Կենտրոն",
      "name_en": "Gyumri Mental Health Center",
      "healthcare": "hospital",
      "operator": null,
      "emergency": null,
      "beds": null,
      "phone": "+374 312 5 68 30",
      "website": null,
      "address": {
        "street": null,
        "city": null,
        "postcode": null
      }
    },
    {
      "id": 2504891664,
      "type": "node",
      "lat": 40.818144,
      "lon": 43.8386847,
      "name": "Gyumri Oncological Dispensary",
      "name_en": null,
      "healthcare": "hospital",
      "operator": null,
      "emergency": null,
      "beds": null,
      "phone": null,
      "website": null,
      "address": {
        "street": null,
        "city": null,
        "postcode": null
      }
    },
    {
      "id": 2529345686,
      "type": "node",
      "lat": 39.0058606,
      "lon": 31.1442464,
      "name": "Unknown Hospital",
      "name_en": null,
      "healthcare": "hospital",
      "operator": null,
      "emergency": "yes",
      "beds": null,
      "phone": null,
      "website": null,
      "address": {
        "street": null,
        "city": "Emirdağ",
        "postcode": null
      }
    },
    {
      "id": 2538222506,
      "type": "node",
      "lat": 40.5695102,
      "lon": 44.8129128,
      "name": "Unknown Hospital",
      "name_en": null,
      "healthcare": "hospital",
      "operator": null,
      "emergency": null,
      "beds": null,
      "phone": null,
      "website": null,
      "address": {
        "street": null,
        "city": null,
        "postcode": null
      }
    },
    {
      "id": 2678736567,
      "type": "node",
      "lat": 41.72367,
      "lon": 44.7689746,
      "name": "Unknown Hospital",
      "name_en": null,
      "healthcare": "hospital",
      "operator": null,
      "emergency": null,
      "beds": null,
      "phone": null,
      "website": null,
      "address": {
        "street": null,
        "city": null,
        "postcode": null
      }
    },
    {
      "id": 2689118828,
      "type": "node",
      "lat": 37.3542553,
      "lon": 27.2682281,
      "name": "Hastane",
      "name_en": null,
      "healthcare": "hospital",
      "operator": null,
      "emergency": null,
      "beds": null,
      "phone": null,
      "website": null,
      "address": {
        "street": null,
        "city": null,
        "postcode": null
      }
    },
    {
      "id": 2745091090,
      "type": "node",
      "lat": 41.3521462,
      "lon": 26.5029556,
      "name": "Στρατιωτικό Νοσοκομείο",
      "name_en": null,
      "healthcare": "hospital",
      "operator": null,
      "emergency": null,
      "beds": null,
      "phone": null,
      "website": null,
      "address": {
        "street": null,
        "city": null,
        "postcode": null
      }
    },
    {
      "id": 2824451871,
      "type": "node",
      "lat": 38.432016,
      "lon": 27.1473523,
      "name": "Kaşkaloğlu Göz Hastanesi",
      "name_en": null,
      "healthcare": "hospital",
      "operator": null,
      "emergency": "yes",
      "beds": null,
      "phone": null,
      "website": null,
      "address": {
        "street": null,
        "city": null,
        "postcode": null
      }
    },
    {
      "id": 2837257678,
      "type": "node",
      "lat": 41.9894509,
      "lon": 43.5971918,
      "name": "Unknown Hospital",
      "name_en": null,
      "healthcare": "hospital",
      "operator": null,
      "emergency": null,
      "beds": null,
      "phone": null,
      "website": null,
      "address": {
        "street": null,
        "city": null,
        "postcode": null
      }
    },
    {
      "id": 2869851327,
      "type": "node",
      "lat": 41.0557195,
      "lon": 28.9995499,
      "name": "Acıbadem Fulya Hastanesi",
      "name_en": "Fulya Acibadem Hospital",
      "healthcare": "hospital",
      "operator": "Acıbadem",
      "emergency": "yes",
      "beds": null,
      "phone": null,
      "website": "https://www.acibadem.com.tr/hastane/fulya-hastanesi/",
      "address": {
        "street": "Yeşilçimen Sokak",
        "city": "İstanbul",
        "postcode": "34349"
      }
    },
    {
      "id": 2928527566,
      "type": "node",
      "lat": 41.0054462,
      "lon": 28.7061163,
      "name": "Özel Avcılar Anadolu Hastanesi",
      "name_en": null,
      "healthcare": "hospital",
      "operator": null,
      "emergency": "yes",
      "beds": null,
      "phone": null,
      "website": null,
      "address": {
        "street": null,
        "city": null,
        "postcode": null
      }
    },
    {
      "id": 2928533162,
      "type": "node",
      "lat": 40.9947818,
      "lon": 28.709593,
      "name": "Özel Avcılar Hospital",
      "name_en": null,
      "healthcare": "hospital",
      "operator": "Özel Hastane",
      "emergency": "yes",
      "beds": null,
      "phone": null,
      "website": null,
      "address": {
        "street": "Uran Caddesi",
        "city": "istanbul",
        "postcode": "34320"
      }
    },
    {
      "id": 2928533998,
      "type": "node",
      "lat": 40.9812753,
      "lon": 28.7211479,
      "name": "Özel Medicana Hastanesi",
      "name_en": null,
      "healthcare": "hospital",
      "operator": null,
      "emergency": "yes",
      "beds": null,
      "phone": null,
      "website": null,
      "address": {
        "street": null,
        "city": null,
        "postcode": null
      }
    },
    {
      "id": 3039360978,
      "type": "node",
      "lat": 39.0870446,
      "lon": 26.3697076,
      "name": "Ίδρυμα Θεομήτωρ",
      "name_en": "Theomitor Foundation",
      "healthcare": "hospital",
      "operator": null,
      "emergency": null,
      "beds": null,
      "phone": "+3022520 22234",
      "website": "http://www.kkppva.gr/",
      "address": {
        "street": null,
        "city": "Αγιάσος",
        "postcode": "81101"
      }
    },
    {
      "id": 3092021920,
      "type": "node",
      "lat": 37.5783985,
      "lon": 36.9278058,
      "name": "Devakent Hastanesi",
      "name_en": null,
      "healthcare": "hospital",
      "operator": null,
      "emergency": null,
      "beds": null,
      "phone": null,
      "website": null,
      "address": {
        "street": null,
        "city": null,
        "postcode": null
      }
    },
    {
      "id": 3092021923,
      "type": "node",
      "lat": 37.5775797,
      "lon": 36.9287658,
      "name": "Hayat Hastanesi",
      "name_en": null,
      "healthcare": "hospital",
      "operator": null,
      "emergency": null,
      "beds": null,
      "phone": null,
      "website": null,
      "address": {
        "street": null,
        "city": null,
        "postcode": null
      }
    },
    {
      "id": 3127850463,
      "type": "node",
      "lat": 41.0554676,
      "lon": 28.9983966,
      "name": "İstanbul Tüpbebek",
      "name_en": null,
      "healthcare": "hospital",
      "operator": null,
      "emergency": null,
      "beds": null,
      "phone": null,
      "website": null,
      "address": {
        "street": null,
        "city": null,
        "postcode": null
      }
    },
    {
      "id": 3200978893,
      "type": "node",
      "lat": 39.6411922,
      "lon": 27.8825996,
      "name": "Atatürk Devlet Hastanesi Ek Hizmet Binası",
      "name_en": null,
      "healthcare": "hospital",
      "operator": null,
      "emergency": null,
      "beds": null,
      "phone": null,
      "website": null,
      "address": {
        "street": null,
        "city": null,
        "postcode": null
      }
    },
    {
      "id": 3282963282,
      "type": "node",
      "lat": 41.0327835,
      "lon": 28.964016,
      "name": "Kasım Paşa Asker Hastanesi",
      "name_en": null,
      "healthcare": "hospital",
      "operator": null,
      "emergency": null,
      "beds": null,
      "phone": null,
      "website": null,
      "address": {
        "street": null,
        "city": null,
        "postcode": null
      }
    },
    {
      "id": 3368090884,
      "type": "node",
      "lat": 36.1944524,
      "lon": 44.044492,
      "name": "نەخۆشخانەی نێودەوڵەتی ژین",
      "name_en": "Zheen International Hospital",
      "healthcare": "hospital",
      "operator": null,
      "emergency": "yes",
      "beds": null,
      "phone": "+964 750 446 0096",
      "website": "https://www.zheen-hospital.com/",
      "address": {
        "street": "شەقامی کۆیە",
        "city": "أربيل",
        "postcode": "44001"
      }
    },
    {
      "id": 3385766443,
      "type": "node",
      "lat": 38.4640228,
      "lon": 27.0932624,
      "name": "Başkent Üniversitesi Zübeyde Hanım Uygulama Merkezi",
      "name_en": "Başkent Üniversitesi Zübeyde Hanım Uygulama Merkezi",
      "healthcare": "hospital",
      "operator": null,
      "emergency": "yes",
      "beds": null,
      "phone": null,
      "website": null,
      "address": {
        "street": null,
        "city": "Karsiyaka",
        "postcode": "35540"
      }
    },
    {
      "id": 3425577755,
      "type": "node",
      "lat": 40.0575565,
      "lon": 44.4419882,
      "name": "դեղատուն",
      "name_en": null,
      "healthcare": "hospital",
      "operator": null,
      "emergency": null,
      "beds": null,
      "phone": null,
      "website": null,
      "address": {
        "street": null,
        "city": null,
        "postcode": null
      }
    },
    {
      "id": 3633962111,
      "type": "node",
      "lat": 39.7057528,
      "lon": 44.8831114,
      "name": "Sadarak Town Hospital",
      "name_en": null,
      "healthcare": "hospital",
      "operator": null,
      "emergency": null,
      "beds": null,
      "phone": null,
      "website": null,
      "address": {
        "street": null,
        "city": null,
        "postcode": null
      }
    },
    {
      "id": 3665589642,
      "type": "node",
      "lat": 40.2203346,
      "lon": 44.5907734,
      "name": "Unknown Hospital",
      "name_en": null,
      "healthcare": "hospital",
      "operator": null,
      "emergency": null,
      "beds": null,
      "phone": null,
      "website": null,
      "address": {
        "street": null,
        "city": null,
        "postcode": null
      }
    },
    {
      "id": 3729705449,
      "type": "node",
      "lat": 36.6143708,
      "lon": 30.5556965,
      "name": "Anadolu hastanesi",
      "name_en": "Anatolia hospital",
      "healthcare": "hospital",
      "operator": null,
      "emergency": null,
      "beds": null,
      "phone": "444 9 112",
      "website": "https://www.anatoliahospital.com/ru/bolnitsa/anatolia-hospital-kemer",
      "address": {
        "street": null,
        "city": null,
        "postcode": null
      }
    },
    {
      "id": 3733043027,
      "type": "node",
      "lat": 41.7756286,
      "lon": 44.7740712,
      "name": "კარაპს მედლაინი",
      "name_en": "Caraps Medline",
      "healthcare": "hospital",
      "operator": null,
      "emergency": null,
      "beds": null,
      "phone": "+995 32 251 60 60",
      "website": "https://carapsmedline.ge/",
      "address": {
        "street": "Lubliana street",
        "city": "თბილისი",
        "postcode": "0159"
      }
    },
    {
      "id": 3733510918,
      "type": "node",
      "lat": 37.7404059,
      "lon": 29.1067181,
      "name": "PAÜ Tıp Fakültesi Acil Servis",
      "name_en": null,
      "healthcare": "hospital",
      "operator": null,
      "emergency": null,
      "beds": null,
      "phone": null,
      "website": null,
      "address": {
        "street": null,
        "city": null,
        "postcode": null
      }
    },
    {
      "id": 3798856225,
      "type": "node",
      "lat": 36.6643272,
      "lon": 30.5597447,
      "name": "Orçun Eczanesi",
      "name_en": "Orçun Pharmacy",
      "healthcare": "hospital",
      "operator": null,
      "emergency": "no",
      "beds": null,
      "phone": "+90 242 815 10 85",
      "website": null,
      "address": {
        "street": "Atatürk Caddesi",
        "city": "göynük",
        "postcode": null
      }
    },
    {
      "id": 3834517760,
      "type": "node",
      "lat": 36.2170654,
      "lon": 44.0348218,
      "name": "Helena Hospital",
      "name_en": null,
      "healthcare": "hospital",
      "operator": null,
      "emergency": null,
      "beds": null,
      "phone": null,
      "website": null,
      "address": {
        "street": null,
        "city": null,
        "postcode": null
      }
    },
    {
      "id": 3834519475,
      "type": "node",
      "lat": 36.2188658,
      "lon": 44.0355138,
      "name": "Raparin Teaching Hospital For Children",
      "name_en": "Raparin Hospital-Hawler",
      "healthcare": "hospital",
      "operator": null,
      "emergency": "yes",
      "beds": null,
      "phone": null,
      "website": null,
      "address": {
        "street": null,
        "city": null,
        "postcode": null
      }
    },
    {
      "id": 3834535503,
      "type": "node",
      "lat": 36.1961977,
      "lon": 44.0170763,
      "name": "Khanzad teaching Center for Oral and Dental Health",
      "name_en": null,
      "healthcare": "hospital",
      "operator": null,
      "emergency": "yes",
      "beds": null,
      "phone": null,
      "website": null,
      "address": {
        "street": null,
        "city": "أربيل",
        "postcode": "44001"
      }
    },
    {
      "id": 3904788783,
      "type": "node",
      "lat": 37.9694908,
      "lon": 34.6462647,
      "name": "Niğde Ömer Halisdemir Üniversitesi Eğitim Ve Araştırma Hastanesi",
      "name_en": null,
      "healthcare": "hospital",
      "operator": "Niğde İl Sağlık Müdürlüğü",
      "emergency": null,
      "beds": null,
      "phone": null,
      "website": null,
      "address": {
        "street": null,
        "city": null,
        "postcode": null
      }
    },
    {
      "id": 3933783834,
      "type": "node",
      "lat": 36.4183343,
      "lon": 38.0614741,
      "name": "Unknown Hospital",
      "name_en": null,
      "healthcare": "hospital",
      "operator": null,
      "emergency": null,
      "beds": null,
      "phone": null,
      "website": null,
      "address": {
        "street": null,
        "city": null,
        "postcode": null
      }
    },
    {
      "id": 3944065198,
      "type": "node",
      "lat": 37.0046617,
      "lon": 40.5968497,
      "name": "Ber Kaver",
      "name_en": null,
      "healthcare": "hospital",
      "operator": "Ber Kaver",
      "emergency": null,
      "beds": null,
      "phone": null,
      "website": null,
      "address": {
        "street": null,
        "city": null,
        "postcode": null
      }
    },
    {
      "id": 3954316816,
      "type": "node",
      "lat": 38.4613584,
      "lon": 27.1160003,
      "name": "Zübeyde Hanım Tıp Merkezi",
      "name_en": null,
      "healthcare": "hospital",
      "operator": null,
      "emergency": null,
      "beds": null,
      "phone": null,
      "website": null,
      "address": {
        "street": null,
        "city": null,
        "postcode": null
      }
    },
    {
      "id": 4024940836,
      "type": "node",
      "lat": 36.0819368,
      "lon": 44.6329493,
      "name": "دكتۆر علی قوربانی",
      "name_en": "Dr Ali Qurbani",
      "healthcare": "hospital",
      "operator": null,
      "emergency": "no",
      "beds": null,
      "phone": null,
      "website": null,
      "address": {
        "street": "Koysinjaq",
        "city": "كوي سنجق",
        "postcode": null
      }
    },
    {
      "id": 4052354622,
      "type": "node",
      "lat": 41.06524,
      "lon": 28.995985,
      "name": "Mecidiyeköy KBB ve Vertigo Kliniği",
      "name_en": null,
      "healthcare": "hospital",
      "operator": "Prof. Dr. Burak Ömür Çakır",
      "emergency": "no",
      "beds": null,
      "phone": null,
      "website": "http://www.mecidiyekoykbb.com",
      "address": {
        "street": "Ortaklar Caddesi",
        "city": "İstanbul",
        "postcode": "34346"
      }
    },
    {
      "id": 4089957318,
      "type": "node",
      "lat": 40.1722724,
      "lon": 44.4649125,
      "name": "Աստղիկ Բժշկական Կենտրոն",
      "name_en": "\"Astghik\" Medical Center",
      "healthcare": "hospital",
      "operator": null,
      "emergency": null,
      "beds": null,
      "phone": "+374 60 65 12 19",
      "website": "http://astghikmc.am",
      "address": {
        "street": null,
        "city": null,
        "postcode": null
      }
    },
    {
      "id": 4126727389,
      "type": "node",
      "lat": 36.2183095,
      "lon": 44.0362169,
      "name": "کۆنترۆل کوالیتی دەرمان",
      "name_en": "Kurdistan Medical Control Agency",
      "healthcare": "hospital",
      "operator": null,
      "emergency": null,
      "beds": null,
      "phone": null,
      "website": null,
      "address": {
        "street": null,
        "city": null,
        "postcode": null
      }
    },
    {
      "id": 4142446089,
      "type": "node",
      "lat": 38.4499935,
      "lon": 27.2036447,
      "name": "Özel EntoKBB Cerrahi Tıp Merkezi",
      "name_en": null,
      "healthcare": "hospital",
      "operator": null,
      "emergency": null,
      "beds": null,
      "phone": "+902324003686",
      "website": "https://www.entokbb.com/",
      "address": {
        "street": "364/1. Sokak",
        "city": null,
        "postcode": null
      }
    },
    {
      "id": 4149919110,
      "type": "node",
      "lat": 36.6289364,
      "lon": 42.9838204,
      "name": "Babirah Hospital",
      "name_en": null,
      "healthcare": "hospital",
      "operator": null,
      "emergency": null,
      "beds": null,
      "phone": null,
      "website": null,
      "address": {
        "street": "Babirah",
        "city": null,
        "postcode": null
      }
    },
    {
      "id": 4151313489,
      "type": "node",
      "lat": 38.3490534,
      "lon": 38.322648,
      "name": "Hayat Hastanesi",
      "name_en": null,
      "healthcare": "hospital",
      "operator": null,
      "emergency": null,
      "beds": null,
      "phone": null,
      "website": null,
      "address": {
        "street": null,
        "city": null,
        "postcode": null
      }
    },
    {
      "id": 4157555937,
      "type": "node",
      "lat": 36.5657863,
      "lon": 44.6956756,
      "name": "Dargala Hospital",
      "name_en": null,
      "healthcare": "hospital",
      "operator": null,
      "emergency": null,
      "beds": null,
      "phone": null,
      "website": null,
      "address": {
        "street": null,
        "city": null,
        "postcode": null
      }
    },
    {
      "id": 4187041309,
      "type": "node",
      "lat": 37.0463462,
      "lon": 41.2236077,
      "name": "الصحة المدرسية",
      "name_en": null,
      "healthcare": "hospital",
      "operator": null,
      "emergency": null,
      "beds": null,
      "phone": null,
      "website": null,
      "address": {
        "street": null,
        "city": null,
        "postcode": null
      }
    },
    {
      "id": 4187041310,
      "type": "node",
      "lat": 37.0364297,
      "lon": 41.2286696,
      "name": "مستوصف الخليج",
      "name_en": null,
      "healthcare": "hospital",
      "operator": null,
      "emergency": null,
      "beds": null,
      "phone": null,
      "website": null,
      "address": {
        "street": null,
        "city": null,
        "postcode": null
      }
    },
    {
      "id": 4187079990,
      "type": "node",
      "lat": 37.0499357,
      "lon": 41.2287225,
      "name": "مشفى السلام",
      "name_en": null,
      "healthcare": "hospital",
      "operator": null,
      "emergency": null,
      "beds": null,
      "phone": null,
      "website": null,
      "address": {
        "street": null,
        "city": null,
        "postcode": null
      }
    },
    {
      "id": 4187080892,
      "type": "node",
      "lat": 37.0504179,
      "lon": 41.2349863,
      "name": "مركز صحي",
      "name_en": null,
      "healthcare": "hospital",
      "operator": null,
      "emergency": null,
      "beds": null,
      "phone": null,
      "website": null,
      "address": {
        "street": null,
        "city": null,
        "postcode": null
      }
    },
    {
      "id": 4187081390,
      "type": "node",
      "lat": 37.0547437,
      "lon": 41.2252767,
      "name": "مشفى الكلمة",
      "name_en": null,
      "healthcare": "hospital",
      "operator": null,
      "emergency": null,
      "beds": null,
      "phone": null,
      "website": null,
      "address": {
        "street": null,
        "city": null,
        "postcode": null
      }
    },
    {
      "id": 4191717260,
      "type": "node",
      "lat": 39.96468,
      "lon": 32.9550957,
      "name": "Hüseyingazi Semt Polikliniği",
      "name_en": null,
      "healthcare": "hospital",
      "operator": null,
      "emergency": null,
      "beds": null,
      "phone": null,
      "website": null,
      "address": {
        "street": null,
        "city": "Mamak/Ankara",
        "postcode": null
      }
    },
    {
      "id": 4191746400,
      "type": "node",
      "lat": 41.0983366,
      "lon": 44.6526872,
      "name": "Հունական բժշկական կենտրոն",
      "name_en": "Hunakan Kentron",
      "healthcare": "hospital",
      "operator": null,
      "emergency": null,
      "beds": null,
      "phone": null,
      "website": null,
      "address": {
        "street": null,
        "city": null,
        "postcode": null
      }
    },
    {
      "id": 4192513998,
      "type": "node",
      "lat": 36.2174045,
      "lon": 43.9861067,
      "name": "نەخۆشخانەی تایبەتی هەولێر",
      "name_en": "Hawler Private Hospital",
      "healthcare": "hospital",
      "operator": null,
      "emergency": "yes",
      "beds": null,
      "phone": null,
      "website": null,
      "address": {
        "street": null,
        "city": "أربيل",
        "postcode": "44001"
      }
    },
    {
      "id": 4212563489,
      "type": "node",
      "lat": 36.125672,
      "lon": 36.905442,
      "name": "دار إستشفاء",
      "name_en": null,
      "healthcare": "hospital",
      "operator": null,
      "emergency": null,
      "beds": null,
      "phone": null,
      "website": null,
      "address": {
        "street": null,
        "city": null,
        "postcode": null
      }
    },
    {
      "id": 4230329694,
      "type": "node",
      "lat": 39.9572683,
      "lon": 32.8953316,
      "name": "Ankara Numune Hastanesi Siteler",
      "name_en": null,
      "healthcare": "hospital",
      "operator": null,
      "emergency": null,
      "beds": null,
      "phone": null,
      "website": null,
      "address": {
        "street": null,
        "city": null,
        "postcode": null
      }
    },
    {
      "id": 4241914552,
      "type": "node",
      "lat": 41.082271,
      "lon": 44.6915637,
      "name": "Ambulatoria",
      "name_en": null,
      "healthcare": "hospital",
      "operator": null,
      "emergency": null,
      "beds": null,
      "phone": null,
      "website": null,
      "address": {
        "street": null,
        "city": null,
        "postcode": null
      }
    },
    {
      "id": 4245041184,
      "type": "node",
      "lat": 36.8594117,
      "lon": 42.9962425,
      "name": "Dr. Saleem Andraws",
      "name_en": null,
      "healthcare": "hospital",
      "operator": "Dentist",
      "emergency": null,
      "beds": null,
      "phone": null,
      "website": null,
      "address": {
        "street": "Raza Road",
        "city": null,
        "postcode": null
      }
    },
    {
      "id": 4250909895,
      "type": "node",
      "lat": 36.7830044,
      "lon": 34.592023,
      "name": "Yenişehir Hastanesi",
      "name_en": null,
      "healthcare": "hospital",
      "operator": null,
      "emergency": null,
      "beds": null,
      "phone": "444 8 595",
      "website": null,
      "address": {
        "street": null,
        "city": null,
        "postcode": null
      }
    },
    {
      "id": 4254745798,
      "type": "node",
      "lat": 41.0789994,
      "lon": 28.9270647,
      "name": "Alibey Hastanesi",
      "name_en": null,
      "healthcare": "hospital",
      "operator": null,
      "emergency": null,
      "beds": null,
      "phone": null,
      "website": null,
      "address": {
        "street": "ATATÜRK caddesi",
        "city": null,
        "postcode": null
      }
    },
    {
      "id": 4267889689,
      "type": "node",
      "lat": 36.1993352,
      "lon": 37.0972442,
      "name": "مشفى الشهباء التخصصي",
      "name_en": "Al Shahba Private Hospital",
      "healthcare": "hospital",
      "operator": null,
      "emergency": null,
      "beds": null,
      "phone": "0215224300",
      "website": null,
      "address": {
        "street": "حي حلب الجديدة",
        "city": null,
        "postcode": null
      }
    },
    {
      "id": 4277481625,
      "type": "node",
      "lat": 36.7297669,
      "lon": 43.871675,
      "name": "نەخۆشخانا ڕزگاری",
      "name_en": "Azadi hospital",
      "healthcare": "hospital",
      "operator": null,
      "emergency": null,
      "beds": null,
      "phone": null,
      "website": null,
      "address": {
        "street": null,
        "city": "ئاکرێ",
        "postcode": null
      }
    },
    {
      "id": 4277481696,
      "type": "node",
      "lat": 36.7499444,
      "lon": 43.8941146,
      "name": "(الطوارئ)",
      "name_en": "Emergency hospital",
      "healthcare": "hospital",
      "operator": null,
      "emergency": null,
      "beds": null,
      "phone": null,
      "website": null,
      "address": {
        "street": null,
        "city": null,
        "postcode": null
      }
    },
    {
      "id": 4283441293,
      "type": "node",
      "lat": 36.8573542,
      "lon": 43.0071491,
      "name": "طوارئ",
      "name_en": "Emergency Hospital",
      "healthcare": "hospital",
      "operator": null,
      "emergency": null,
      "beds": null,
      "phone": null,
      "website": null,
      "address": {
        "street": null,
        "city": "دهۆک",
        "postcode": null
      }
    },
    {
      "id": 4284101191,
      "type": "node",
      "lat": 36.9870027,
      "lon": 35.3075898,
      "name": "Hacetepeliler Cerrahi Tıp Merkezi",
      "name_en": null,
      "healthcare": "hospital",
      "operator": null,
      "emergency": null,
      "beds": null,
      "phone": null,
      "website": null,
      "address": {
        "street": null,
        "city": null,
        "postcode": null
      }
    },
    {
      "id": 4291639792,
      "type": "node",
      "lat": 36.3257633,
      "lon": 43.1863361,
      "name": "مستشفى السلام",
      "name_en": "Al-Salam General Hospital",
      "healthcare": "hospital",
      "operator": null,
      "emergency": null,
      "beds": null,
      "phone": null,
      "website": null,
      "address": {
        "street": null,
        "city": null,
        "postcode": null
      }
    },
    {
      "id": 4292277289,
      "type": "node",
      "lat": 41.1278866,
      "lon": 44.2880431,
      "name": "Տաշիրի բժշկական կենտրոն",
      "name_en": "Tashir medical center",
      "healthcare": "hospital",
      "operator": null,
      "emergency": null,
      "beds": null,
      "phone": "+374 254 2 21 46,+374 254 2 34 34",
      "website": "https://tashir-bk.fosite.ru",
      "address": {
        "street": "Գրիբոյեդովի փողոց",
        "city": "Տաշիր",
        "postcode": "2101"
      }
    },
    {
      "id": 4300975191,
      "type": "node",
      "lat": 36.5038996,
      "lon": 40.7470976,
      "name": "عصام بغدي",
      "name_en": null,
      "healthcare": "hospital",
      "operator": null,
      "emergency": null,
      "beds": null,
      "phone": null,
      "website": null,
      "address": {
        "street": null,
        "city": null,
        "postcode": null
      }
    },
    {
      "id": 4300975892,
      "type": "node",
      "lat": 36.5021837,
      "lon": 40.7500282,
      "name": "شابو",
      "name_en": null,
      "healthcare": "hospital",
      "operator": null,
      "emergency": null,
      "beds": null,
      "phone": null,
      "website": null,
      "address": {
        "street": "فلسطين",
        "city": null,
        "postcode": null
      }
    },
    {
      "id": 4301333190,
      "type": "node",
      "lat": 36.3329856,
      "lon": 43.1265107,
      "name": "مستشفى نينوى الأهلي",
      "name_en": null,
      "healthcare": "hospital",
      "operator": null,
      "emergency": null,
      "beds": null,
      "phone": null,
      "website": null,
      "address": {
        "street": "باب الجديد",
        "city": null,
        "postcode": null
      }
    },
    {
      "id": 4301352689,
      "type": "node",
      "lat": 36.4052142,
      "lon": 43.096765,
      "name": "مستشفى الأورام والحبل الشوكي",
      "name_en": null,
      "healthcare": "hospital",
      "operator": null,
      "emergency": null,
      "beds": null,
      "phone": null,
      "website": null,
      "address": {
        "street": "الرشيدية",
        "city": null,
        "postcode": null
      }
    },
    {
      "id": 4301352690,
      "type": "node",
      "lat": 36.3065014,
      "lon": 43.1112683,
      "name": "المستشفى الألماني",
      "name_en": null,
      "healthcare": "hospital",
      "operator": null,
      "emergency": null,
      "beds": null,
      "phone": null,
      "website": null,
      "address": {
        "street": "Mosul-Baghdad road",
        "city": null,
        "postcode": null
      }
    },
    {
      "id": 4310721089,
      "type": "node",
      "lat": 40.1847695,
      "lon": 44.5088833,
      "name": "Մեդլայն",
      "name_en": "MedLine",
      "healthcare": "hospital",
      "operator": null,
      "emergency": null,
      "beds": null,
      "phone": "+374 10 501003; +374 99 911103",
      "website": "https://www.medline.am",
      "address": {
        "street": "Պուշկինի փողոց",
        "city": null,
        "postcode": null
      }
    },
    {
      "id": 4315550591,
      "type": "node",
      "lat": 36.161951,
      "lon": 36.641291,
      "name": "مشفى باريشا إختصاص عينية",
      "name_en": null,
      "healthcare": "hospital",
      "operator": null,
      "emergency": null,
      "beds": null,
      "phone": null,
      "website": null,
      "address": {
        "street": null,
        "city": null,
        "postcode": null
      }
    },
    {
      "id": 4317593190,
      "type": "node",
      "lat": 36.8500874,
      "lon": 43.0058146,
      "name": "Nexoşxana Hîvî ya Zarokan - نه‌خۆشخانا هيڤي يا زارۆكان",
      "name_en": "Hivi Children's Hospital",
      "healthcare": "hospital",
      "operator": null,
      "emergency": null,
      "beds": null,
      "phone": null,
      "website": null,
      "address": {
        "street": "Silav road",
        "city": null,
        "postcode": null
      }
    },
    {
      "id": 4319958390,
      "type": "node",
      "lat": 36.499549,
      "lon": 41.8661889,
      "name": "مستشفى بورك",
      "name_en": "Bork hospital",
      "healthcare": "hospital",
      "operator": null,
      "emergency": null,
      "beds": null,
      "phone": null,
      "website": null,
      "address": {
        "street": "بورك",
        "city": null,
        "postcode": null
      }
    },
    {
      "id": 4333122824,
      "type": "node",
      "lat": 39.9064721,
      "lon": 32.8635098,
      "name": "Özel Koru Kavaklıdere Hastanesi",
      "name_en": null,
      "healthcare": "hospital",
      "operator": null,
      "emergency": null,
      "beds": null,
      "phone": null,
      "website": null,
      "address": {
        "street": null,
        "city": null,
        "postcode": null
      }
    },
    {
      "id": 4341160568,
      "type": "node",
      "lat": 40.7012589,
      "lon": 40.2313934,
      "name": "Ataköy Ruh ve Sinir Hastalıkları Hastanesi",
      "name_en": null,
      "healthcare": "hospital",
      "operator": null,
      "emergency": null,
      "beds": null,
      "phone": null,
      "website": null,
      "address": {
        "street": null,
        "city": null,
        "postcode": null
      }
    },
    {
      "id": 4341160576,
      "type": "node",
      "lat": 40.8118114,
      "lon": 39.6111683,
      "name": "Maçka Ömer Burhanoğlu Fizik Tedavi ve Rehabilitasyon Hastanesi",
      "name_en": null,
      "healthcare": "hospital",
      "operator": null,
      "emergency": null,
      "beds": null,
      "phone": null,
      "website": null,
      "address": {
        "street": null,
        "city": null,
        "postcode": null
      }
    },
    {
      "id": 4361897391,
      "type": "node",
      "lat": 36.3675405,
      "lon": 42.3822484,
      "name": "مستشفى الفاروق",
      "name_en": null,
      "healthcare": "hospital",
      "operator": null,
      "emergency": null,
      "beds": null,
      "phone": null,
      "website": null,
      "address": {
        "street": "طريق تلعفر سنجار",
        "city": null,
        "postcode": null
      }
    },
    {
      "id": 4362862794,
      "type": "node",
      "lat": 41.7053037,
      "lon": 44.8594633,
      "name": "თბილისის ზღვის საავადმყოფო",
      "name_en": "Tbilisi Sea Hospital",
      "healthcare": "hospital",
      "operator": null,
      "emergency": null,
      "beds": null,
      "phone": null,
      "website": null,
      "address": {
        "street": null,
        "city": null,
        "postcode": null
      }
    },
    {
      "id": 4363429389,
      "type": "node",
      "lat": 36.197428,
      "lon": 44.0405645,
      "name": "نەخۆشخانەی نەدوەی خێرخوازی",
      "name_en": "Nadwa Charity Hospital",
      "healthcare": "hospital",
      "operator": null,
      "emergency": null,
      "beds": null,
      "phone": null,
      "website": null,
      "address": {
        "street": "شەقامی هۆلی زەرد",
        "city": "أربيل",
        "postcode": "44001"
      }
    },
    {
      "id": 4371647190,
      "type": "node",
      "lat": 36.2032224,
      "lon": 44.005171,
      "name": "نەخۆشخانەی سۆران",
      "name_en": "Soran Hospital",
      "healthcare": "hospital",
      "operator": null,
      "emergency": null,
      "beds": null,
      "phone": null,
      "website": null,
      "address": {
        "street": "شەقامی کوردستان",
        "city": "أربيل",
        "postcode": "44001"
      }
    },
    {
      "id": 4375497689,
      "type": "node",
      "lat": 36.1917592,
      "lon": 44.0379796,
      "name": "نەخۆشخانەی ڕزگاری",
      "name_en": "Rizgary Hospital",
      "healthcare": "hospital",
      "operator": null,
      "emergency": "yes",
      "beds": null,
      "phone": null,
      "website": null,
      "address": {
        "street": "شەقامی کۆیە",
        "city": "أربيل",
        "postcode": "44001"
      }
    },
    {
      "id": 4376107598,
      "type": "node",
      "lat": 40.1217321,
      "lon": 44.0644059,
      "name": "Հիվանդանոց",
      "name_en": null,
      "healthcare": "hospital",
      "operator": null,
      "emergency": null,
      "beds": null,
      "phone": null,
      "website": null,
      "address": {
        "street": null,
        "city": null,
        "postcode": null
      }
    },
    {
      "id": 4376178493,
      "type": "node",
      "lat": 36.8573909,
      "lon": 42.7580691,
      "name": "Grê Gawre",
      "name_en": null,
      "healthcare": "hospital",
      "operator": null,
      "emergency": null,
      "beds": null,
      "phone": null,
      "website": null,
      "address": {
        "street": null,
        "city": null,
        "postcode": null
      }
    },
    {
      "id": 4379335009,
      "type": "node",
      "lat": 40.1851908,
      "lon": 44.521599,
      "name": "Allergology&Immunology Center",
      "name_en": null,
      "healthcare": "hospital",
      "operator": null,
      "emergency": null,
      "beds": null,
      "phone": "+37410544367",
      "website": "https://cmg.am/",
      "address": {
        "street": "Աբովյան փողոց",
        "city": "Երևան",
        "postcode": "0010"
      }
    },
    {
      "id": 4394247391,
      "type": "node",
      "lat": 36.1676776,
      "lon": 43.9763724,
      "name": "نەخۆشخانەی سەردەمی تایبەت",
      "name_en": "Saradam Private Hospital",
      "healthcare": "hospital",
      "operator": null,
      "emergency": "yes",
      "beds": null,
      "phone": null,
      "website": null,
      "address": {
        "street": "شەقامی نەورۆز",
        "city": "أربيل",
        "postcode": "44001"
      }
    },
    {
      "id": 4394408389,
      "type": "node",
      "lat": 36.8922438,
      "lon": 27.2914935,
      "name": "HIPPOCRATES KOS HOSPITAL",
      "name_en": null,
      "healthcare": "hospital",
      "operator": null,
      "emergency": null,
      "beds": null,
      "phone": "0030 2242 360321",
      "website": null,
      "address": {
        "street": "Ελευθερίου Βενιζέλου",
        "city": null,
        "postcode": "85300"
      }
    },
    {
      "id": 4398471791,
      "type": "node",
      "lat": 36.1549674,
      "lon": 44.120072,
      "name": "بنكەی تەندروستی بنەسڵاوە",
      "name_en": "Binaslawa Health center (The old hospital)",
      "healthcare": "hospital",
      "operator": null,
      "emergency": null,
      "beds": null,
      "phone": null,
      "website": null,
      "address": {
        "street": null,
        "city": "أربيل",
        "postcode": null
      }
    },
    {
      "id": 4398476691,
      "type": "node",
      "lat": 36.1521297,
      "lon": 44.1111308,
      "name": "بنکەی تەندروستی ڕاژان",
      "name_en": "Razhan Health center (The new hospital)",
      "healthcare": "hospital",
      "operator": null,
      "emergency": null,
      "beds": null,
      "phone": null,
      "website": null,
      "address": {
        "street": null,
        "city": "أربيل",
        "postcode": null
      }
    },
    {
      "id": 4398856289,
      "type": "node",
      "lat": 41.4957505,
      "lon": 26.5345972,
      "name": "Κέντρο Υγείας Ορεστιάδας",
      "name_en": null,
      "healthcare": "hospital",
      "operator": null,
      "emergency": null,
      "beds": null,
      "phone": null,
      "website": null,
      "address": {
        "street": null,
        "city": null,
        "postcode": null
      }
    },
    {
      "id": 4406104689,
      "type": "node",
      "lat": 36.0990389,
      "lon": 44.6481601,
      "name": "Khalid general hospital",
      "name_en": "Dr Khalid General Hospital",
      "healthcare": "hospital",
      "operator": null,
      "emergency": null,
      "beds": null,
      "phone": null,
      "website": null,
      "address": {
        "street": null,
        "city": null,
        "postcode": null
      }
    },
    {
      "id": 4406513697,
      "type": "node",
      "lat": 39.8924972,
      "lon": 32.8263122,
      "name": "Ankara Cerrahi Tıp Merkezi",
      "name_en": null,
      "healthcare": "hospital",
      "operator": null,
      "emergency": null,
      "beds": null,
      "phone": null,
      "website": null,
      "address": {
        "street": "1332. Sokak",
        "city": null,
        "postcode": null
      }
    },
    {
      "id": 4407260699,
      "type": "node",
      "lat": 36.1267267,
      "lon": 44.0430525,
      "name": "نەخۆشخانەی خواکوڕک",
      "name_en": "Khwakurk",
      "healthcare": "hospital",
      "operator": null,
      "emergency": "no",
      "beds": null,
      "phone": null,
      "website": null,
      "address": {
        "street": "جووت سایدی دارەتوو",
        "city": "أربيل",
        "postcode": null
      }
    },
    {
      "id": 4415719389,
      "type": "node",
      "lat": 36.1943717,
      "lon": 44.0526174,
      "name": "نەخۆشخانەی ڕەسولی تایبەت",
      "name_en": "Rasul Private Hospital",
      "healthcare": "hospital",
      "operator": null,
      "emergency": null,
      "beds": null,
      "phone": null,
      "website": null,
      "address": {
        "street": null,
        "city": "أربيل",
        "postcode": "44001"
      }
    },
    {
      "id": 4424777990,
      "type": "node",
      "lat": 36.3854327,
      "lon": 42.4566077,
      "name": "مستشفى تلعفر العام",
      "name_en": null,
      "healthcare": "hospital",
      "operator": null,
      "emergency": null,
      "beds": null,
      "phone": null,
      "website": null,
      "address": {
        "street": null,
        "city": null,
        "postcode": null
      }
    },
    {
      "id": 4430210889,
      "type": "node",
      "lat": 36.1689107,
      "lon": 43.9906687,
      "name": "بنکەی تەندروستی محمد باجەلان",
      "name_en": "Muhammad Bajalan Health Center",
      "healthcare": "hospital",
      "operator": null,
      "emergency": null,
      "beds": null,
      "phone": null,
      "website": null,
      "address": {
        "street": "Alban",
        "city": null,
        "postcode": null
      }
    },
    {
      "id": 4440120690,
      "type": "node",
      "lat": 36.1940368,
      "lon": 44.0497383,
      "name": "Unknown Hospital",
      "name_en": null,
      "healthcare": "hospital",
      "operator": null,
      "emergency": null,
      "beds": null,
      "phone": null,
      "website": null,
      "address": {
        "street": null,
        "city": "أربيل",
        "postcode": "44001"
      }
    },
    {
      "id": 4440153989,
      "type": "node",
      "lat": 36.1914884,
      "lon": 44.0290179,
      "name": "مستشفى دايك",
      "name_en": "Daik Hospital",
      "healthcare": "hospital",
      "operator": null,
      "emergency": null,
      "beds": null,
      "phone": null,
      "website": null,
      "address": {
        "street": null,
        "city": null,
        "postcode": null
      }
    },
    {
      "id": 4446432889,
      "type": "node",
      "lat": 36.1762825,
      "lon": 44.0398548,
      "name": "Mala Fandi Health Center",
      "name_en": "Mala afandi health center",
      "healthcare": "hospital",
      "operator": null,
      "emergency": null,
      "beds": null,
      "phone": null,
      "website": null,
      "address": {
        "street": null,
        "city": "أربيل",
        "postcode": "44001"
      }
    },
    {
      "id": 4453499292,
      "type": "node",
      "lat": 36.246614,
      "lon": 44.0212875,
      "name": "atconz",
      "name_en": null,
      "healthcare": "hospital",
      "operator": null,
      "emergency": null,
      "beds": null,
      "phone": null,
      "website": null,
      "address": {
        "street": null,
        "city": null,
        "postcode": null
      }
    },
    {
      "id": 4459098190,
      "type": "node",
      "lat": 41.0241414,
      "lon": 28.9166504,
      "name": "Koç Üniversitesi Hastanesi",
      "name_en": "Koc University Hospital",
      "healthcare": "hospital",
      "operator": null,
      "emergency": "yes",
      "beds": null,
      "phone": null,
      "website": "https://www.kuh.ku.edu.tr/",
      "address": {
        "street": null,
        "city": null,
        "postcode": null
      }
    },
    {
      "id": 4470495790,
      "type": "node",
      "lat": 36.217862,
      "lon": 44.026274,
      "name": "بنکەی تەندرووستی بامەڕنێ",
      "name_en": "Nazdar bamarni Healthcare",
      "healthcare": "hospital",
      "operator": null,
      "emergency": null,
      "beds": null,
      "phone": null,
      "website": null,
      "address": {
        "street": "شەقامی گوڵان",
        "city": "أربيل",
        "postcode": "44001"
      }
    },
    {
      "id": 4475574492,
      "type": "node",
      "lat": 36.8670288,
      "lon": 42.998686,
      "name": "Wan Global",
      "name_en": "Wan Globalization",
      "healthcare": "hospital",
      "operator": null,
      "emergency": null,
      "beds": null,
      "phone": null,
      "website": null,
      "address": {
        "street": null,
        "city": "دهۆک",
        "postcode": null
      }
    },
    {
      "id": 4475613589,
      "type": "node",
      "lat": 36.8636772,
      "lon": 42.9869742,
      "name": "نه خوش خانا بجيك بونىَ",
      "name_en": "Birth Hospital",
      "healthcare": "hospital",
      "operator": null,
      "emergency": null,
      "beds": null,
      "phone": null,
      "website": null,
      "address": {
        "street": null,
        "city": "دهۆک",
        "postcode": null
      }
    },
    {
      "id": 4484290392,
      "type": "node",
      "lat": 36.1946495,
      "lon": 44.0051685,
      "name": "کلینیک دکتۆر ئەیاد فەرەج",
      "name_en": "Clinic dr Ayad Faraj",
      "healthcare": "hospital",
      "operator": null,
      "emergency": null,
      "beds": null,
      "phone": null,
      "website": null,
      "address": {
        "street": null,
        "city": "أربيل",
        "postcode": "44001"
      }
    },
    {
      "id": 4488285794,
      "type": "node",
      "lat": 36.1150403,
      "lon": 43.9672782,
      "name": "بنکەی تەندروستی سەرکارێز",
      "name_en": "بنکەی تەندروستی سەرکارێز",
      "healthcare": "hospital",
      "operator": null,
      "emergency": null,
      "beds": null,
      "phone": null,
      "website": null,
      "address": {
        "street": "Arbil-Baghdad road",
        "city": "أربيل",
        "postcode": null
      }
    },
    {
      "id": 4488812389,
      "type": "node",
      "lat": 36.118341,
      "lon": 44.0652298,
      "name": "بنکەی تەندروستی دارەتوو",
      "name_en": "health daratu",
      "healthcare": "hospital",
      "operator": null,
      "emergency": null,
      "beds": null,
      "phone": null,
      "website": null,
      "address": {
        "street": null,
        "city": "هەولێر",
        "postcode": null
      }
    },
    {
      "id": 4509951890,
      "type": "node",
      "lat": 40.4824609,
      "lon": 44.3578298,
      "name": "Արագածի առողջության կենտրոն",
      "name_en": "Aragats Medical center",
      "healthcare": "hospital",
      "operator": null,
      "emergency": null,
      "beds": null,
      "phone": null,
      "website": null,
      "address": {
        "street": null,
        "city": null,
        "postcode": null
      }
    },
    {
      "id": 4511371082,
      "type": "node",
      "lat": 41.0178075,
      "lon": 28.6608987,
      "name": "Özel Mediplus Tıp Merkezi",
      "name_en": null,
      "healthcare": "hospital",
      "operator": null,
      "emergency": "yes",
      "beds": null,
      "phone": null,
      "website": null,
      "address": {
        "street": null,
        "city": null,
        "postcode": null
      }
    },
    {
      "id": 4532707405,
      "type": "node",
      "lat": 36.5263332,
      "lon": 37.9532823,
      "name": "مشفى المدينة",
      "name_en": "City Hospital",
      "healthcare": "hospital",
      "operator": null,
      "emergency": null,
      "beds": null,
      "phone": null,
      "website": null,
      "address": {
        "street": null,
        "city": null,
        "postcode": null
      }
    },
    {
      "id": 4532788689,
      "type": "node",
      "lat": 36.5278764,
      "lon": 37.949948,
      "name": "مشفى اﻷمل",
      "name_en": "Hope Hospital",
      "healthcare": "hospital",
      "operator": null,
      "emergency": null,
      "beds": null,
      "phone": null,
      "website": null,
      "address": {
        "street": "شارع الحديقة",
        "city": null,
        "postcode": null
      }
    },
    {
      "id": 4534460790,
      "type": "node",
      "lat": 36.1380899,
      "lon": 36.8257351,
      "name": "الدكتور جوهر مرعي",
      "name_en": "Dr jawhar merai",
      "healthcare": "hospital",
      "operator": null,
      "emergency": null,
      "beds": null,
      "phone": "0954259958",
      "website": null,
      "address": {
        "street": "سوق الألبسة",
        "city": null,
        "postcode": null
      }
    },
    {
      "id": 4537313691,
      "type": "node",
      "lat": 36.8597542,
      "lon": 42.9524884,
      "name": "کومەلگەها ڤین یا نوژداری",
      "name_en": "Vin Medical Complex",
      "healthcare": "hospital",
      "operator": null,
      "emergency": null,
      "beds": null,
      "phone": null,
      "website": "http://www.vinmedlab.com",
      "address": {
        "street": null,
        "city": "دهۆک",
        "postcode": null
      }
    },
    {
      "id": 4537957593,
      "type": "node",
      "lat": 37.1470207,
      "lon": 42.7023571,
      "name": "nexoshxana shêx seid pîran",
      "name_en": "Shekh Said Piran Hospital",
      "healthcare": "hospital",
      "operator": null,
      "emergency": null,
      "beds": null,
      "phone": null,
      "website": null,
      "address": {
        "street": null,
        "city": null,
        "postcode": null
      }
    },
    {
      "id": 4543399589,
      "type": "node",
      "lat": 36.5837715,
      "lon": 37.0397591,
      "name": "مشفى التوليد",
      "name_en": null,
      "healthcare": "hospital",
      "operator": null,
      "emergency": null,
      "beds": null,
      "phone": null,
      "website": null,
      "address": {
        "street": null,
        "city": null,
        "postcode": null
      }
    },
    {
      "id": 4547930691,
      "type": "node",
      "lat": 36.32242,
      "lon": 41.8543585,
      "name": "مستشفى سنجار العام",
      "name_en": null,
      "healthcare": "hospital",
      "operator": null,
      "emergency": null,
      "beds": null,
      "phone": null,
      "website": null,
      "address": {
        "street": null,
        "city": null,
        "postcode": null
      }
    },
    {
      "id": 4548527390,
      "type": "node",
      "lat": 36.5837722,
      "lon": 37.0397695,
      "name": "مشفى سوريا الخيرية",
      "name_en": "Charity Syria Hospital",
      "healthcare": "hospital",
      "operator": null,
      "emergency": null,
      "beds": null,
      "phone": null,
      "website": null,
      "address": {
        "street": null,
        "city": null,
        "postcode": null
      }
    },
    {
      "id": 4548807995,
      "type": "node",
      "lat": 36.1835398,
      "lon": 44.0305578,
      "name": "نەخۆشخانەی ئەمەل",
      "name_en": "Amal Hospital",
      "healthcare": "hospital",
      "operator": null,
      "emergency": null,
      "beds": null,
      "phone": null,
      "website": null,
      "address": {
        "street": null,
        "city": null,
        "postcode": null
      }
    },
    {
      "id": 4562996990,
      "type": "node",
      "lat": 36.1669371,
      "lon": 44.1356139,
      "name": "بنکەی تەندروستی قەڵای نوێ",
      "name_en": "Qalay nwe Health center",
      "healthcare": "hospital",
      "operator": null,
      "emergency": null,
      "beds": null,
      "phone": null,
      "website": null,
      "address": {
        "street": null,
        "city": null,
        "postcode": null
      }
    },
    {
      "id": 4563051993,
      "type": "node",
      "lat": 36.4062097,
      "lon": 44.3139648,
      "name": "نەخۆشخانەی شەقڵاوە",
      "name_en": "Shaqlawa hospital",
      "healthcare": "hospital",
      "operator": null,
      "emergency": null,
      "beds": null,
      "phone": null,
      "website": null,
      "address": {
        "street": null,
        "city": null,
        "postcode": null
      }
    },